{
  "data": [
    {
      "id": 1,
      "name": "Intertoys Pijnacker",
      "city": "Pijnacker",
      "address": "Emmapark 106",
      "latitude": 52.01815788811212,
      "longitude": 4.431163930194324,
      "category": [
        "Verzamelkaarten",
        "Games",
        "LEGO",
        "Bordspellen"
      ]
    },
    {
      "id": 2,
      "name": "Daans Shop",
      "city": "Berkel en Rodenrijs",
      "address": "Kerkstraat 13",
      "latitude": 51.994118958329594,
      "longitude": 4.4775834163009955,
      "category": [
        "Trading cards",
        "TTRPG's",
        "Board Games"
      ]
    },
    {
      "id": 3,
      "name": "Nerds Like Us!",
      "city": "Delft",
      "address": "Martinus Nijhofflaan 10",
      "latitude": 51.99737260053708,
      "longitude": 4.353143024264067,
      "category": [
        "Verzamelkaarten",
        "TTRPG's",
        "Figuren"
      ]
    },
    {
      "id": 4,
      "name": "Intertoys Delft",
      "city": "Delft",
      "address": "Paradijspoort 14",
      "latitude": 52.0109844579973,
      "longitude": 4.362764026825304,
      "category": [
        "Verzamelkaarten",
        "Games",
        "LEGO",
        "Bordspellen"
      ]
    },
    {
      "id": 5,
      "name": "Intertoys Rijswijk",
      "city": "Rijswijk",
      "address": "Prins Willem Alexander Promenade 59",
      "latitude": 52.04084144881676,
      "longitude": 4.3161186803378415,
      "category": [
        "Verzamelkaarten",
        "Games",
        "LEGO",
        "Bordspellen"
      ]
    }
  ]
}